[
    {
        "id": "1",
        "title": "FoodTruck's BH",
        "longitude": "-43.96621",
        "latitude": "-19.9334783"
    },
    {
        "id": "12",
        "title": "Gordelicia",
        "longitude": "-43.9201104",
        "latitude": "-19.9086321"
    },
    {
        "id": "13",
        "title": "KenelTruck",
        "longitude": "-43.9253537",
        "latitude": "-19.899201"
    },
    {
        "id": "14",
        "title": "BH TRUCKS",
        "longitude": "-43.9567677",
        "latitude": "-19.883947"
    },
    {
        "id": "15",
        "title": "LEO TRUCK",
        "longitude": "-43.9353005",
        "latitude": "-19.9357339"
    },
    {
        "id": "16",
        "title": "Gordo's Truck",
        "longitude": "-43.9808206",
        "latitude": "-19.85987"
    },
    {
        "id": "17",
        "title": "Rodrigo truck",
        "longitude": "-43.8531271",
        "latitude": "-19.9839444"
    },
    {
        "id": "18",
        "title": "TESTE TESTE",
        "longitude": "-43.9694942",
        "latitude": "-19.9350847"
    },
    {
        "id": "19",
        "title": "THIAGO TRUCK",
        "longitude": "-43.64770123",
        "latitude": "-19.45524353"
    },
    {
        "id": "20",
        "title": "CARLINHA TRUCKS",
        "longitude": "-42.6466565",
        "latitude": "-18.3241429"
    },
    {
        "id": "21",
        "title": "CARLINHA TESTE",
        "longitude": "-43.23123321",
        "latitude": "-18.865314"
    },
    {
        "id": "22",
        "title": "CARLINHAHASHSDHSHD",
        "longitude": "-43.556555",
        "latitude": "-19.555555"
    },
    {
        "id": "23",
        "title": "lwdaoawmdoawmdowamodmowamdomwodmao",
        "longitude": "-43.4341431",
        "latitude": "-18.333333"
    },
    {
        "id": "24",
        "title": "AGORA VAI CARALHO",
        "longitude": "-43.1111111",
        "latitude": "-19.1111111"
    },
    {
        "id": "25",
        "title": "DDSADSADAS",
        "longitude": "-43.2222222",
        "latitude": "-19.11111"
    },
    {
        "id": "26",
        "title": "DKODKWADAWO",
        "longitude": "-43.11111111",
        "latitude": "-19.11111111"
    },
    {
        "id": "27",
        "title": "DWAWADDWA",
        "longitude": "-43.11111111",
        "latitude": "-19.111111111"
    },
    {
        "id": "28",
        "title": "DSDSSA",
        "longitude": "-43.111111",
        "latitude": "-19.11111111"
    },
    {
        "id": "29",
        "title": "tenho CTZ QUE VAI DAR CERTO",
        "longitude": "-40.111111111",
        "latitude": "-11.111111111"
    },
    {
        "id": "30",
        "title": "Rodrigo Truck",
        "longitude": "-43.9142757",
        "latitude": "-19.9265988"
    }
]